2.90029 
$--GGA,172814.00,38.94020529,N,76.940850,W,2,6,1.2,18.893,M,-25.669,M,2.0,0031*4F 
$GPVTG,,T,,M,0.00,N,0.719760,K*4E 
5.61192 
$--GGA,172814.00,38.94023864,N,76.940850,W,2,6,1.2,18.893,M,-25.669,M,2.0,0031*4F 
$GPVTG,,T,,M,0.00,N,1.755293,K*4E 
8.92431 
$--GGA,172814.00,38.94029517,N,76.940850,W,2,6,1.2,18.893,M,-25.669,M,2.0,0031*4F 
$GPVTG,,T,,M,0.00,N,2.059693,K*4E 
12.11355 
$--GGA,172814.00,38.94036431,N,76.940850,W,2,6,1.2,18.893,M,-25.669,M,2.0,0031*4F 
$GPVTG,,T,,M,0.00,N,2.753323,K*4E 
15.48806 
$--GGA,172814.00,38.94044981,N,76.940850,W,2,6,1.2,18.893,M,-25.669,M,2.0,0031*4F 
$GPVTG,,T,,M,0.00,N,2.914030,K*4E 
17.71990 
$--GGA,172814.00,38.94050980,N,76.940850,W,2,6,1.2,18.893,M,-25.669,M,2.0,0031*4F 
$GPVTG,,T,,M,0.00,N,2.951077,K*4E 
20.85408 
$--GGA,172814.00,38.94060027,N,76.940850,W,2,6,1.2,18.893,M,-25.669,M,2.0,0031*4F 
$GPVTG,,T,,M,0.00,N,3.591440,K*4E 
23.76624 
$--GGA,172814.00,38.94069883,N,76.940850,W,2,6,1.2,18.893,M,-25.669,M,2.0,0031*4F 
$GPVTG,,T,,M,0.00,N,3.963616,K*4E 
26.79150 
$--GGA,172814.00,38.94081174,N,76.940850,W,2,6,1.2,18.893,M,-25.669,M,2.0,0031*4F 
$GPVTG,,T,,M,0.00,N,4.446921,K*4E 
29.68839 
$--GGA,172814.00,38.94093184,N,76.940850,W,2,6,1.2,18.893,M,-25.669,M,2.0,0031*4F 
$GPVTG,,T,,M,0.00,N,4.768545,K*4E 
32.52286 
$--GGA,172814.00,38.94105918,N,76.940850,W,2,6,1.2,18.893,M,-25.669,M,2.0,0031*4F 
$GPVTG,,T,,M,0.00,N,5.040066,K*4E 
35.94940 
$--GGA,172814.00,38.94122179,N,76.940850,W,2,6,1.2,18.893,M,-25.669,M,2.0,0031*4F 
$GPVTG,,T,,M,0.00,N,5.731313,K*4E 
38.74364 
$--GGA,172814.00,38.94137705,N,76.940850,W,2,6,1.2,18.893,M,-25.669,M,2.0,0031*4F 
$GPVTG,,T,,M,0.00,N,6.543730,K*4E 
42.36873 
$--GGA,172814.00,38.94158855,N,76.940850,W,2,6,1.2,18.893,M,-25.669,M,2.0,0031*4F 
$GPVTG,,T,,M,0.00,N,6.605290,K*4E 
45.02861 
$--GGA,172814.00,38.94175810,N,76.940850,W,2,6,1.2,18.893,M,-25.669,M,2.0,0031*4F 
$GPVTG,,T,,M,0.00,N,7.342851,K*4E 
48.41414 
$--GGA,172814.00,38.94197609,N,76.940850,W,2,6,1.2,18.893,M,-25.669,M,2.0,0031*4F 
$GPVTG,,T,,M,0.00,N,6.996461,K*4E 
51.47393 
$--GGA,172814.00,38.94217923,N,76.940850,W,2,6,1.2,18.893,M,-25.669,M,2.0,0031*4F 
$GPVTG,,T,,M,0.00,N,8.158355,K*4E 
54.08543 
$--GGA,172814.00,38.94237133,N,76.940850,W,2,6,1.2,18.893,M,-25.669,M,2.0,0031*4F 
$GPVTG,,T,,M,0.00,N,8.172955,K*4E 
56.61898 
$--GGA,172814.00,38.94256130,N,76.940850,W,2,6,1.2,18.893,M,-25.669,M,2.0,0031*4F 
$GPVTG,,T,,M,0.00,N,8.194136,K*4E 
60.42653 
$--GGA,172814.00,38.94284953,N,76.940850,W,2,6,1.2,18.893,M,-25.669,M,2.0,0031*4F 
$GPVTG,,T,,M,0.00,N,8.660849,K*4E 
63.09356 
$--GGA,172814.00,38.94305034,N,76.940850,W,2,6,1.2,18.893,M,-25.669,M,2.0,0031*4F 
$GPVTG,,T,,M,0.00,N,8.561367,K*4E 
66.38362 
$--GGA,172814.00,38.94330956,N,76.940850,W,2,6,1.2,18.893,M,-25.669,M,2.0,0031*4F 
$GPVTG,,T,,M,0.00,N,9.108456,K*4E 
68.92448 
$--GGA,172814.00,38.94352907,N,76.940850,W,2,6,1.2,18.893,M,-25.669,M,2.0,0031*4F 
$GPVTG,,T,,M,0.00,N,9.610346,K*4E 
72.10726 
$--GGA,172814.00,38.94380011,N,76.940850,W,2,6,1.2,18.893,M,-25.669,M,2.0,0031*4F 
$GPVTG,,T,,M,0.00,N,9.352117,K*4E 
74.57076 
$--GGA,172814.00,38.94400888,N,76.940850,W,2,6,1.2,18.893,M,-25.669,M,2.0,0031*4F 
$GPVTG,,T,,M,0.00,N,10.065936,K*4E 
78.42477 
$--GGA,172814.00,38.94435911,N,76.940850,W,2,6,1.2,18.893,M,-25.669,M,2.0,0031*4F 
$GPVTG,,T,,M,0.00,N,9.777005,K*4E 
81.14208 
$--GGA,172814.00,38.94459625,N,76.940850,W,2,6,1.2,18.893,M,-25.669,M,2.0,0031*4F 
$GPVTG,,T,,M,0.00,N,9.933138,K*4E 
83.60450 
$--GGA,172814.00,38.94482495,N,76.940850,W,2,6,1.2,18.893,M,-25.669,M,2.0,0031*4F 
$GPVTG,,T,,M,0.00,N,10.444699,K*4E 
87.20023 
$--GGA,172814.00,38.94516639,N,76.940850,W,2,6,1.2,18.893,M,-25.669,M,2.0,0031*4F 
$GPVTG,,T,,M,0.00,N,10.619447,K*4E 
89.89580 
$--GGA,172814.00,38.94541503,N,76.940850,W,2,6,1.2,18.893,M,-25.669,M,2.0,0031*4F 
$GPVTG,,T,,M,0.00,N,10.708061,K*4E 
92.58490 
$--GGA,172814.00,38.94567494,N,76.940850,W,2,6,1.2,18.893,M,-25.669,M,2.0,0031*4F 
$GPVTG,,T,,M,0.00,N,10.782911,K*4E 
95.71448 
$--GGA,172814.00,38.94598661,N,76.940850,W,2,6,1.2,18.893,M,-25.669,M,2.0,0031*4F 
$GPVTG,,T,,M,0.00,N,10.775498,K*4E 
98.74880 
$--GGA,172814.00,38.94626374,N,76.940850,W,2,6,1.2,18.893,M,-25.669,M,2.0,0031*4F 
$GPVTG,,T,,M,0.00,N,10.043265,K*4E 
101.72665 
$--GGA,172814.00,38.94655160,N,76.940850,W,2,6,1.2,18.893,M,-25.669,M,2.0,0031*4F 
$GPVTG,,T,,M,0.00,N,11.364092,K*4E 
105.20300 
$--GGA,172814.00,38.94690399,N,76.940850,W,2,6,1.2,18.893,M,-25.669,M,2.0,0031*4F 
$GPVTG,,T,,M,0.00,N,11.122486,K*4E 
108.25415 
$--GGA,172814.00,38.94722472,N,76.940850,W,2,6,1.2,18.893,M,-25.669,M,2.0,0031*4F 
$GPVTG,,T,,M,0.00,N,12.654308,K*4E 
111.04729 
$--GGA,172814.00,38.94753833,N,76.940850,W,2,6,1.2,18.893,M,-25.669,M,2.0,0031*4F 
$GPVTG,,T,,M,0.00,N,12.268889,K*4E 
114.05348 
$--GGA,172814.00,38.94788332,N,76.940850,W,2,6,1.2,18.893,M,-25.669,M,2.0,0031*4F 
$GPVTG,,T,,M,0.00,N,13.542404,K*4E 
117.13057 
$--GGA,172814.00,38.94826780,N,76.940850,W,2,6,1.2,18.893,M,-25.669,M,2.0,0031*4F 
$GPVTG,,T,,M,0.00,N,13.934927,K*4E 
120.48546 
$--GGA,172814.00,38.94868436,N,76.940850,W,2,6,1.2,18.893,M,-25.669,M,2.0,0031*4F 
$GPVTG,,T,,M,0.00,N,14.257661,K*4E 
123.13428 
$--GGA,172814.00,38.94903436,N,76.940850,W,2,6,1.2,18.893,M,-25.669,M,2.0,0031*4F 
$GPVTG,,T,,M,0.00,N,14.763595,K*4E 
126.10046 
$--GGA,172814.00,38.94945006,N,76.940850,W,2,6,1.2,18.893,M,-25.669,M,2.0,0031*4F 
$GPVTG,,T,,M,0.00,N,16.070989,K*4E 
129.40919 
$--GGA,172814.00,38.94993081,N,76.940850,W,2,6,1.2,18.893,M,-25.669,M,2.0,0031*4F 
$GPVTG,,T,,M,0.00,N,16.259280,K*4E 
132.07084 
$--GGA,172814.00,38.95031218,N,76.940850,W,2,6,1.2,18.893,M,-25.669,M,2.0,0031*4F 
$GPVTG,,T,,M,0.00,N,16.498769,K*4E 
134.83542 
$--GGA,172814.00,38.95073186,N,76.940850,W,2,6,1.2,18.893,M,-25.669,M,2.0,0031*4F 
$GPVTG,,T,,M,0.00,N,17.024293,K*4E 
138.45714 
$--GGA,172814.00,38.95130707,N,76.940850,W,2,6,1.2,18.893,M,-25.669,M,2.0,0031*4F 
$GPVTG,,T,,M,0.00,N,18.612065,K*4E 
140.93992 
$--GGA,172814.00,38.95173076,N,76.940850,W,2,6,1.2,18.893,M,-25.669,M,2.0,0031*4F 
$GPVTG,,T,,M,0.00,N,19.041101,K*4E 
144.10154 
$--GGA,172814.00,38.95227658,N,76.940850,W,2,6,1.2,18.893,M,-25.669,M,2.0,0031*4F 
$GPVTG,,T,,M,0.00,N,19.113449,K*4E 
147.22026 
$--GGA,172814.00,38.95282571,N,76.940850,W,2,6,1.2,18.893,M,-25.669,M,2.0,0031*4F 
$GPVTG,,T,,M,0.00,N,20.430531,K*4E 
150.17878 
$--GGA,172814.00,38.95336643,N,76.940850,W,2,6,1.2,18.893,M,-25.669,M,2.0,0031*4F 
$GPVTG,,T,,M,0.00,N,20.988715,K*4E 
152.71276 
$--GGA,172814.00,38.95385709,N,76.940850,W,2,6,1.2,18.893,M,-25.669,M,2.0,0031*4F 
$GPVTG,,T,,M,0.00,N,21.090874,K*4E 
155.58162 
$--GGA,172814.00,38.95438918,N,76.940850,W,2,6,1.2,18.893,M,-25.669,M,2.0,0031*4F 
$GPVTG,,T,,M,0.00,N,21.290106,K*4E 
158.77448 
$--GGA,172814.00,38.95500463,N,76.940850,W,2,6,1.2,18.893,M,-25.669,M,2.0,0031*4F 
$GPVTG,,T,,M,0.00,N,21.782959,K*4E 
162.36752 
$--GGA,172814.00,38.95573674,N,76.940850,W,2,6,1.2,18.893,M,-25.669,M,2.0,0031*4F 
$GPVTG,,T,,M,0.00,N,23.495607,K*4E 
165.05936 
$--GGA,172814.00,38.95630716,N,76.940850,W,2,6,1.2,18.893,M,-25.669,M,2.0,0031*4F 
$GPVTG,,T,,M,0.00,N,23.497393,K*4E 
167.96463 
$--GGA,172814.00,38.95692042,N,76.940850,W,2,6,1.2,18.893,M,-25.669,M,2.0,0031*4F 
$GPVTG,,T,,M,0.00,N,23.758652,K*4E 
170.93030 
$--GGA,172814.00,38.95756681,N,76.940850,W,2,6,1.2,18.893,M,-25.669,M,2.0,0031*4F 
$GPVTG,,T,,M,0.00,N,24.310861,K*4E 
174.27399 
$--GGA,172814.00,38.95829699,N,76.940850,W,2,6,1.2,18.893,M,-25.669,M,2.0,0031*4F 
$GPVTG,,T,,M,0.00,N,25.034649,K*4E 
177.15392 
$--GGA,172814.00,38.95895541,N,76.940850,W,2,6,1.2,18.893,M,-25.669,M,2.0,0031*4F 
$GPVTG,,T,,M,0.00,N,25.581127,K*4E 
180.15773 
$--GGA,172814.00,38.95965179,N,76.940850,W,2,6,1.2,18.893,M,-25.669,M,2.0,0031*4F 
$GPVTG,,T,,M,0.00,N,26.313818,K*4E 
182.66102 
$--GGA,172814.00,38.96025502,N,76.940850,W,2,6,1.2,18.893,M,-25.669,M,2.0,0031*4F 
$GPVTG,,T,,M,0.00,N,27.442511,K*4E 
185.93238 
$--GGA,172814.00,38.96107187,N,76.940850,W,2,6,1.2,18.893,M,-25.669,M,2.0,0031*4F 
$GPVTG,,T,,M,0.00,N,27.710978,K*4E 
189.00509 
$--GGA,172814.00,38.96185608,N,76.940850,W,2,6,1.2,18.893,M,-25.669,M,2.0,0031*4F 
$GPVTG,,T,,M,0.00,N,28.671168,K*4E 
191.87533 
$--GGA,172814.00,38.96257618,N,76.940850,W,2,6,1.2,18.893,M,-25.669,M,2.0,0031*4F 
$GPVTG,,T,,M,0.00,N,28.568888,K*4E 
194.98037 
$--GGA,172814.00,38.96337388,N,76.940850,W,2,6,1.2,18.893,M,-25.669,M,2.0,0031*4F 
$GPVTG,,T,,M,0.00,N,29.091989,K*4E 
197.84242 
$--GGA,172814.00,38.96414957,N,76.940850,W,2,6,1.2,18.893,M,-25.669,M,2.0,0031*4F 
$GPVTG,,T,,M,0.00,N,30.430516,K*4E 
201.27715 
$--GGA,172814.00,38.96507015,N,76.940850,W,2,6,1.2,18.893,M,-25.669,M,2.0,0031*4F 
$GPVTG,,T,,M,0.00,N,29.726263,K*4E 
203.88394 
$--GGA,172814.00,38.96575988,N,76.940850,W,2,6,1.2,18.893,M,-25.669,M,2.0,0031*4F 
$GPVTG,,T,,M,0.00,N,29.442137,K*4E 
207.21156 
$--GGA,172814.00,38.96664300,N,76.940850,W,2,6,1.2,18.893,M,-25.669,M,2.0,0031*4F 
$GPVTG,,T,,M,0.00,N,28.427431,K*4E 
209.98093 
$--GGA,172814.00,38.96732343,N,76.940850,W,2,6,1.2,18.893,M,-25.669,M,2.0,0031*4F 
$GPVTG,,T,,M,0.00,N,27.728547,K*4E 
213.22918 
$--GGA,172814.00,38.96812115,N,76.940850,W,2,6,1.2,18.893,M,-25.669,M,2.0,0031*4F 
$GPVTG,,T,,M,0.00,N,26.142117,K*4E 
216.43756 
$--GGA,172814.00,38.96885729,N,76.940850,W,2,6,1.2,18.893,M,-25.669,M,2.0,0031*4F 
$GPVTG,,T,,M,0.00,N,25.308498,K*4E 
219.01725 
$--GGA,172814.00,38.96944214,N,76.940850,W,2,6,1.2,18.893,M,-25.669,M,2.0,0031*4F 
$GPVTG,,T,,M,0.00,N,24.822127,K*4E 
222.40307 
$--GGA,172814.00,38.97018078,N,76.940850,W,2,6,1.2,18.893,M,-25.669,M,2.0,0031*4F 
$GPVTG,,T,,M,0.00,N,23.540361,K*4E 
224.71819 
$--GGA,172814.00,38.97065560,N,76.940850,W,2,6,1.2,18.893,M,-25.669,M,2.0,0031*4F 
$GPVTG,,T,,M,0.00,N,22.615669,K*4E 
228.37322 
$--GGA,172814.00,38.97138021,N,76.940850,W,2,6,1.2,18.893,M,-25.669,M,2.0,0031*4F 
$GPVTG,,T,,M,0.00,N,22.305882,K*4E 
230.58269 
$--GGA,172814.00,38.97181415,N,76.940850,W,2,6,1.2,18.893,M,-25.669,M,2.0,0031*4F 
$GPVTG,,T,,M,0.00,N,21.575404,K*4E 
233.96540 
$--GGA,172814.00,38.97245056,N,76.940850,W,2,6,1.2,18.893,M,-25.669,M,2.0,0031*4F 
$GPVTG,,T,,M,0.00,N,20.159071,K*4E 
236.52193 
$--GGA,172814.00,38.97290942,N,76.940850,W,2,6,1.2,18.893,M,-25.669,M,2.0,0031*4F 
$GPVTG,,T,,M,0.00,N,19.211387,K*4E 
240.30828 
$--GGA,172814.00,38.97354139,N,76.940850,W,2,6,1.2,18.893,M,-25.669,M,2.0,0031*4F 
$GPVTG,,T,,M,0.00,N,18.026629,K*4E 
242.67921 
$--GGA,172814.00,38.97391059,N,76.940850,W,2,6,1.2,18.893,M,-25.669,M,2.0,0031*4F 
$GPVTG,,T,,M,0.00,N,17.791882,K*4E 
245.66539 
$--GGA,172814.00,38.97438212,N,76.940850,W,2,6,1.2,18.893,M,-25.669,M,2.0,0031*4F 
$GPVTG,,T,,M,0.00,N,17.174506,K*4E 
248.68160 
$--GGA,172814.00,38.97483299,N,76.940850,W,2,6,1.2,18.893,M,-25.669,M,2.0,0031*4F 
$GPVTG,,T,,M,0.00,N,16.309719,K*4E 
252.19144 
$--GGA,172814.00,38.97532658,N,76.940850,W,2,6,1.2,18.893,M,-25.669,M,2.0,0031*4F 
$GPVTG,,T,,M,0.00,N,14.979532,K*4E 
254.71376 
$--GGA,172814.00,38.97566016,N,76.940850,W,2,6,1.2,18.893,M,-25.669,M,2.0,0031*4F 
$GPVTG,,T,,M,0.00,N,13.731094,K*4E 
257.79810 
$--GGA,172814.00,38.97602540,N,76.940850,W,2,6,1.2,18.893,M,-25.669,M,2.0,0031*4F 
$GPVTG,,T,,M,0.00,N,13.445390,K*4E 
261.26834 
$--GGA,172814.00,38.97642453,N,76.940850,W,2,6,1.2,18.893,M,-25.669,M,2.0,0031*4F 
$GPVTG,,T,,M,0.00,N,11.818960,K*4E 
264.00115 
$--GGA,172814.00,38.97671018,N,76.940850,W,2,6,1.2,18.893,M,-25.669,M,2.0,0031*4F 
$GPVTG,,T,,M,0.00,N,11.115312,K*4E 
267.40946 
$--GGA,172814.00,38.97704642,N,76.940850,W,2,6,1.2,18.893,M,-25.669,M,2.0,0031*4F 
$GPVTG,,T,,M,0.00,N,10.723854,K*4E 
269.55785 
$--GGA,172814.00,38.97723570,N,76.940850,W,2,6,1.2,18.893,M,-25.669,M,2.0,0031*4F 
$GPVTG,,T,,M,0.00,N,9.334224,K*4E 
272.93675 
$--GGA,172814.00,38.97749841,N,76.940850,W,2,6,1.2,18.893,M,-25.669,M,2.0,0031*4F 
$GPVTG,,T,,M,0.00,N,8.177437,K*4E 
276.07225 
$--GGA,172814.00,38.97772044,N,76.940850,W,2,6,1.2,18.893,M,-25.669,M,2.0,0031*4F 
$GPVTG,,T,,M,0.00,N,7.677687,K*4E 
279.06507 
$--GGA,172814.00,38.97790961,N,76.940850,W,2,6,1.2,18.893,M,-25.669,M,2.0,0031*4F 
$GPVTG,,T,,M,0.00,N,6.435988,K*4E 
282.32382 
$--GGA,172814.00,38.97809690,N,76.940850,W,2,6,1.2,18.893,M,-25.669,M,2.0,0031*4F 
$GPVTG,,T,,M,0.00,N,6.148646,K*4E 
284.62610 
$--GGA,172814.00,38.97821069,N,76.940850,W,2,6,1.2,18.893,M,-25.669,M,2.0,0031*4F 
$GPVTG,,T,,M,0.00,N,4.830217,K*4E 
287.80012 
$--GGA,172814.00,38.97833059,N,76.940850,W,2,6,1.2,18.893,M,-25.669,M,2.0,0031*4F 
$GPVTG,,T,,M,0.00,N,3.704264,K*4E 
290.50212 
$--GGA,172814.00,38.97841097,N,76.940850,W,2,6,1.2,18.893,M,-25.669,M,2.0,0031*4F 
$GPVTG,,T,,M,0.00,N,2.987292,K*4E 
294.45111 
$--GGA,172814.00,38.97850440,N,76.940850,W,2,6,1.2,18.893,M,-25.669,M,2.0,0031*4F 
$GPVTG,,T,,M,0.00,N,2.390599,K*4E 
297.26630 
$--GGA,172814.00,38.97855610,N,76.940850,W,2,6,1.2,18.893,M,-25.669,M,2.0,0031*4F 
$GPVTG,,T,,M,0.00,N,1.596978,K*4E 
